{
"type": "FeatureCollection",
"name": "Intermodal_Freight_Facilities_Marine_Roll-on_Roll-off",
"crs": { "type": "name", "properties": { "name": "urn:ogc:def:crs:OGC:1.3:CRS84" } },
"features": [
{ "type": "Feature", "properties": { "OBJECTID": 1, "PORT": "Port Canaveral", "TERMINAL": "South Cargo Pier 4", "OPERATED_BY": "AutoPort Inc.", "TERM_ADDRESS": "9070 Pompano Street", "CITY": "Port Canaveral", "STATE": "FL", "ZIP_CODE": "32920", "RAIL_CO": " ", "EQUIPMENT": "Ro/Ro", "ACCESS_RD": "Marlin Street", "LAT": 28.406046, "LON": -80.608903, "NAV_UNIT_ID": "0PYB; 0YUP" }, "geometry": { "type": "Point", "coordinates": [ -80.608903000319955, 28.406046000175824 ] } },
{ "type": "Feature", "properties": { "OBJECTID": 2, "PORT": "Port Everglades", "TERMINAL": "Northport Terminal", "OPERATED_BY": "Broward County Board of County Commissioners", "TERM_ADDRESS": "Eisenhower Blvd.", "CITY": "Fort Lauderdale", "STATE": "FL", "ZIP_CODE": "33316", "RAIL_CO": " ", "EQUIPMENT": "Ro/Ro", "ACCESS_RD": " ", "LAT": 26.095059, "LON": -80.124331, "NAV_UNIT_ID": "0YXC; 0YXB; 0YWB" }, "geometry": { "type": "Point", "coordinates": [ -80.124330999355863, 26.095059000031039 ] } },
{ "type": "Feature", "properties": { "OBJECTID": 3, "PORT": "Port Everglades", "TERMINAL": "Midport Terminal", "OPERATED_BY": "Broward County Board of County Commissioners", "TERM_ADDRESS": "Eller Drive", "CITY": "Fort Lauderdale", "STATE": "FL", "ZIP_CODE": "33316", "RAIL_CO": " ", "EQUIPMENT": "Ro/Ro", "ACCESS_RD": " ", "LAT": 26.082146, "LON": -80.122271, "NAV_UNIT_ID": "0XPW; 0XQF" }, "geometry": { "type": "Point", "coordinates": [ -80.122270999814319, 26.082145999493648 ] } },
{ "type": "Feature", "properties": { "OBJECTID": 4, "PORT": "Port Everglades", "TERMINAL": "Southport Terminal", "OPERATED_BY": "Broward County Board of County Commissioners", "TERM_ADDRESS": "McIntosh Road", "CITY": "Fort Lauderdale", "STATE": "FL", "ZIP_CODE": "33316", "RAIL_CO": " ", "EQUIPMENT": "Ro/Ro", "ACCESS_RD": " ", "LAT": 26.075007, "LON": -80.12416, "NAV_UNIT_ID": "0YSY; 0YT0" }, "geometry": { "type": "Point", "coordinates": [ -80.124159999651653, 26.075006999253862 ] } },
{ "type": "Feature", "properties": { "OBJECTID": 5, "PORT": "Port Freeport", "TERMINAL": "Horizon Terminal (South Gate/Gate 4)", "OPERATED_BY": "Horizon Terminal Services", "TERM_ADDRESS": "1341 Pine Street", "CITY": "Freeport", "STATE": "TX", "ZIP_CODE": "77541", "RAIL_CO": "UP", "EQUIPMENT": "Ro/Ro", "ACCESS_RD": "Old Quintana Road", "LAT": 28.937908, "LON": -95.346242, "NAV_UNIT_ID": "0SZE" }, "geometry": { "type": "Point", "coordinates": [ -95.346242000069765, 28.937907999811348 ] } },
{ "type": "Feature", "properties": { "OBJECTID": 6, "PORT": "Port of Baltimore", "TERMINAL": "Dundalk Marine Terminal", "OPERATED_BY": "Ports America", "TERM_ADDRESS": "2700 Broening Hwy", "CITY": "Baltimore", "STATE": "MD", "ZIP_CODE": "21222", "RAIL_CO": "CSX, NS", "EQUIPMENT": "Ro/Ro", "ACCESS_RD": " ", "LAT": 39.249791, "LON": -76.522789, "NAV_UNIT_ID": "0Y1V; 0YF7; 0Z0V" }, "geometry": { "type": "Point", "coordinates": [ -76.522789000349292, 39.249791000397664 ] } },
{ "type": "Feature", "properties": { "OBJECTID": 7, "PORT": "Port of Baltimore", "TERMINAL": "Fairfield/Masonville Marine Terminal", "OPERATED_BY": "Daimler-Chrysler (Mercedes-Benz)", "TERM_ADDRESS": "2908 Childs Street", "CITY": "Baltimore", "STATE": "MD", "ZIP_CODE": "21226", "RAIL_CO": "CSX", "EQUIPMENT": "Ro/Ro", "ACCESS_RD": " ", "LAT": 39.245094, "LON": -76.582359, "NAV_UNIT_ID": "0X4X" }, "geometry": { "type": "Point", "coordinates": [ -76.58235899975142, 39.245094000069372 ] } },
{ "type": "Feature", "properties": { "OBJECTID": 8, "PORT": "Port of Baltimore", "TERMINAL": "Atlantic Terminal", "OPERATED_BY": "AMPORTS", "TERM_ADDRESS": "2901 Childs Street", "CITY": "Baltimore", "STATE": "MD", "ZIP_CODE": "21226", "RAIL_CO": "CSX", "EQUIPMENT": "Ro/Ro", "ACCESS_RD": " ", "LAT": 39.243714, "LON": -76.582066, "NAV_UNIT_ID": "0X4Z" }, "geometry": { "type": "Point", "coordinates": [ -76.582065999848467, 39.243713999714672 ] } },
{ "type": "Feature", "properties": { "OBJECTID": 9, "PORT": "Port of Baltimore", "TERMINAL": "Chesapeake Terminal", "OPERATED_BY": "AMPORTS", "TERM_ADDRESS": "2000 Chesapeake Ave.", "CITY": "Baltimore", "STATE": "MD", "ZIP_CODE": "21226", "RAIL_CO": "CSX", "EQUIPMENT": "Ro/Ro", "ACCESS_RD": " ", "LAT": 39.239736, "LON": -76.571944, "NAV_UNIT_ID": "0YRY" }, "geometry": { "type": "Point", "coordinates": [ -76.571943999720986, 39.239735999384649 ] } },
{ "type": "Feature", "properties": { "OBJECTID": 10, "PORT": "Port of Baltimore", "TERMINAL": "South Locust Point Marine Terminal", "OPERATED_BY": "Maryland Port Authority (MPA)", "TERM_ADDRESS": "2025 E. McComas Street", "CITY": "Baltimore", "STATE": "MD", "ZIP_CODE": "21230", "RAIL_CO": "CSX", "EQUIPMENT": "Ro/Ro", "ACCESS_RD": " ", "LAT": 39.263176, "LON": -76.587264, "NAV_UNIT_ID": "0XHG" }, "geometry": { "type": "Point", "coordinates": [ -76.587263999730396, 39.263175999311827 ] } },
{ "type": "Feature", "properties": { "OBJECTID": 11, "PORT": "Port of Beaumont", "TERMINAL": "Harbor Island Marine Terminal", "OPERATED_BY": "Port of Beaumont Navigation District of Jefferson County", "TERM_ADDRESS": "1225 Main Street", "CITY": "Beaumont", "STATE": "TX", "ZIP_CODE": "77701", "RAIL_CO": "BNSF, KCS, UP", "EQUIPMENT": "Ro/Ro", "ACCESS_RD": " ", "LAT": 30.078809, "LON": -94.090979, "NAV_UNIT_ID": "OZ91; 0ZED" }, "geometry": { "type": "Point", "coordinates": [ -94.090978999814979, 30.078808999958802 ] } },
{ "type": "Feature", "properties": { "OBJECTID": 12, "PORT": "Port of Boston", "TERMINAL": "Boston Autoport", "OPERATED_BY": "Massachusetts Port Authority (MassPort)", "TERM_ADDRESS": "100 Terminal Street", "CITY": "Charlestown", "STATE": "MA", "ZIP_CODE": "02129", "RAIL_CO": " ", "EQUIPMENT": "Ro/Ro", "ACCESS_RD": " ", "LAT": 42.381653, "LON": -71.051313, "NAV_UNIT_ID": "0XZ2" }, "geometry": { "type": "Point", "coordinates": [ -71.051313000417736, 42.381653000200437 ] } },
{ "type": "Feature", "properties": { "OBJECTID": 13, "PORT": "Port of Brunswick", "TERMINAL": "Colonel's Island Terminal", "OPERATED_BY": "Georgia Ports Authority", "TERM_ADDRESS": "Joe Frank Harris Blvd.", "CITY": "Brunswick", "STATE": "GA", "ZIP_CODE": "31520", "RAIL_CO": "CSX, NS via GITM", "EQUIPMENT": "Ro/Ro", "ACCESS_RD": " ", "LAT": 31.119402, "LON": -81.539578, "NAV_UNIT_ID": "0S0Q" }, "geometry": { "type": "Point", "coordinates": [ -81.539578000373595, 31.11940200006309 ] } },
{ "type": "Feature", "properties": { "OBJECTID": 14, "PORT": "Port of Charleston", "TERMINAL": "Columbus Street Terminal", "OPERATED_BY": "South Carolina Ports Authority", "TERM_ADDRESS": "30 Johnson Street", "CITY": "Charleston", "STATE": "SC", "ZIP_CODE": "29403", "RAIL_CO": "CSX, NS via Palmetto Railways", "EQUIPMENT": "Ro/Ro", "ACCESS_RD": " ", "LAT": 32.80029, "LON": -79.93301, "NAV_UNIT_ID": "0XD5" }, "geometry": { "type": "Point", "coordinates": [ -79.933010000236749, 32.800290000118487 ] } },
{ "type": "Feature", "properties": { "OBJECTID": 15, "PORT": "Port of Charleston", "TERMINAL": "Veterans Terminal", "OPERATED_BY": "South Carolina Ports Authority", "TERM_ADDRESS": "1031 Pierside Street", "CITY": "North Charleston", "STATE": "SC", "ZIP_CODE": "29405", "RAIL_CO": "CSX, NS", "EQUIPMENT": "Ro/Ro", "ACCESS_RD": "S. Hobson Ave.", "LAT": 32.852486, "LON": -79.956328, "NAV_UNIT_ID": "0QBB" }, "geometry": { "type": "Point", "coordinates": [ -79.956327999461351, 32.852485999269696 ] } },
{ "type": "Feature", "properties": { "OBJECTID": 16, "PORT": "Port of Corpus Christi", "TERMINAL": "Northside Terminal", "OPERATED_BY": "Port of Corpus Christi Authority", "TERM_ADDRESS": "Navigation Blvd.", "CITY": "Corpus Christi", "STATE": "TX", "ZIP_CODE": "78042", "RAIL_CO": "BNSF, KCS, UP, CCPN", "EQUIPMENT": "Ro/Ro", "ACCESS_RD": " ", "LAT": 27.815777, "LON": -97.396917, "NAV_UNIT_ID": "0VLL" }, "geometry": { "type": "Point", "coordinates": [ -97.396917000226992, 27.815777000081937 ] } },
{ "type": "Feature", "properties": { "OBJECTID": 17, "PORT": "Port of Corpus Christi", "TERMINAL": "Southside Terminal", "OPERATED_BY": "Port of Corpus Christi Authority", "TERM_ADDRESS": "Stroman Road", "CITY": "Corpus Christi", "STATE": "TX", "ZIP_CODE": "78402", "RAIL_CO": "BNSF, KCS, UP, CCPN", "EQUIPMENT": "Ro/Ro", "ACCESS_RD": " ", "LAT": 27.810971, "LON": -97.405928, "NAV_UNIT_ID": "0VR1; 0VQK" }, "geometry": { "type": "Point", "coordinates": [ -97.405927999943685, 27.810970999747131 ] } },
{ "type": "Feature", "properties": { "OBJECTID": 18, "PORT": "Port of Galveston", "TERMINAL": "Terminal 1", "OPERATED_BY": "Wallenius Wilhelmsen Solutions on behalf of BMW", "TERM_ADDRESS": "1402 Harborside Drive", "CITY": "Galveston", "STATE": "TX", "ZIP_CODE": "77550", "RAIL_CO": "GVSR", "EQUIPMENT": "Ro/Ro", "ACCESS_RD": "14th Street (East Gate Entrace)", "LAT": 29.311089, "LON": -94.785866, "NAV_UNIT_ID": "0VZ6" }, "geometry": { "type": "Point", "coordinates": [ -94.785866000723487, 29.311088999320788 ] } },
{ "type": "Feature", "properties": { "OBJECTID": 19, "PORT": "Port of Galveston", "TERMINAL": "Terminal 8", "OPERATED_BY": "Ports America", "TERM_ADDRESS": "3870 Port Industrial Road", "CITY": "Galveston", "STATE": "TX", "ZIP_CODE": "77550", "RAIL_CO": "GVSR", "EQUIPMENT": "Ro/Ro", "ACCESS_RD": "Wharf Road (West Gate Entrace)", "LAT": 29.304236, "LON": -94.813848, "NAV_UNIT_ID": "0VXJ; 0VY3; 0VXL" }, "geometry": { "type": "Point", "coordinates": [ -94.813847999902634, 29.304236000277882 ] } },
{ "type": "Feature", "properties": { "OBJECTID": 20, "PORT": "Port of Hawaii", "TERMINAL": "Honolulu Harbour Piers 51-53 (Sand Island)", "OPERATED_BY": "Hawaii Department of Transportation, Harbors Division (DOT-H)", "TERM_ADDRESS": "Sand Island Pkwy", "CITY": "Honolulu", "STATE": "HI", "ZIP_CODE": "96819", "RAIL_CO": " ", "EQUIPMENT": "Ro/Ro", "ACCESS_RD": " ", "LAT": 21.310867, "LON": -157.885113, "NAV_UNIT_ID": "0UCA; 0ZAR" }, "geometry": { "type": "Point", "coordinates": [ -157.885113000013888, 21.310866999731996 ] } },
{ "type": "Feature", "properties": { "OBJECTID": 21, "PORT": "Port of Hawaii", "TERMINAL": "Honolulu Harbour (Peirs 32 & 33)", "OPERATED_BY": "Hawaii Department of Transportation, Harbors Division (DOT-H)", "TERM_ADDRESS": "N. Nimitz Hwy", "CITY": "Honolulu", "STATE": "HI", "ZIP_CODE": "96817", "RAIL_CO": " ", "EQUIPMENT": "Ro/Ro", "ACCESS_RD": " ", "LAT": 21.313145, "LON": -157.8744, "NAV_UNIT_ID": "0U8Q" }, "geometry": { "type": "Point", "coordinates": [ -157.874400000057562, 21.313144999855542 ] } },
{ "type": "Feature", "properties": { "OBJECTID": 22, "PORT": "Port of Houston", "TERMINAL": "Turning Basin Terminal", "OPERATED_BY": "Port of Houston Authority", "TERM_ADDRESS": "9400 Clinton Drive", "CITY": "Houston", "STATE": "TX", "ZIP_CODE": "77029", "RAIL_CO": "PTRA", "EQUIPMENT": "Ro/Ro", "ACCESS_RD": " ", "LAT": 29.731969, "LON": -95.257551, "NAV_UNIT_ID": "0W0D; 0W0C; 0VUS; 0VS0; 0VRZ; 0YQL; 0Z18; 0YXT; 0VRY; 0W0B" }, "geometry": { "type": "Point", "coordinates": [ -95.257551000590297, 29.731969000594923 ] } },
{ "type": "Feature", "properties": { "OBJECTID": 23, "PORT": "Port of Hueneme", "TERMINAL": "North Terminal", "OPERATED_BY": "The Oxnard Harbor District", "TERM_ADDRESS": "333 Ponoma Street", "CITY": "Port Hueneme", "STATE": "CA", "ZIP_CODE": "93041", "RAIL_CO": "UP via VCRR", "EQUIPMENT": "Ro/Ro", "ACCESS_RD": "Port Hueneme Road", "LAT": 34.148044, "LON": -119.201089, "NAV_UNIT_ID": "0UUD" }, "geometry": { "type": "Point", "coordinates": [ -119.201089000146581, 34.148043999771375 ] } },
{ "type": "Feature", "properties": { "OBJECTID": 24, "PORT": "Port of Jacksonville", "TERMINAL": "Blount Island Marine Terminal", "OPERATED_BY": "JAXPORT", "TERM_ADDRESS": "9620 Dave Rawls Blvd.", "CITY": "Jacksonville", "STATE": "FL", "ZIP_CODE": "32226", "RAIL_CO": "CSX", "EQUIPMENT": "Ro/Ro", "ACCESS_RD": " ", "LAT": 30.402753, "LON": -81.537844, "NAV_UNIT_ID": "0S1A; 0S3B; 0S3C; 0S3D" }, "geometry": { "type": "Point", "coordinates": [ -81.537844000346951, 30.402752999824724 ] } },
{ "type": "Feature", "properties": { "OBJECTID": 25, "PORT": "Port of Jacksonville", "TERMINAL": "Talleyrand Marine Terminal", "OPERATED_BY": "JAXPORT", "TERM_ADDRESS": "2085 Talleyrand Ave.", "CITY": "Jacksonville", "STATE": "FL", "ZIP_CODE": "32206", "RAIL_CO": "CSX, NS via FEC, JXPT", "EQUIPMENT": "Ro/Ro", "ACCESS_RD": " ", "LAT": 30.349582, "LON": -81.624258, "NAV_UNIT_ID": "0X3U; 0X3V; 0X3W; 0Y7E" }, "geometry": { "type": "Point", "coordinates": [ -81.624258000549887, 30.349582000499559 ] } },
{ "type": "Feature", "properties": { "OBJECTID": 26, "PORT": "Port of Jacksonville", "TERMINAL": "Dames Point Marine Terminal", "OPERATED_BY": "JAXPORT", "TERM_ADDRESS": "9834 New Berlin Road", "CITY": "Jacksonville", "STATE": "FL", "ZIP_CODE": "32226", "RAIL_CO": "CSX", "EQUIPMENT": "Ro/Ro", "ACCESS_RD": " ", "LAT": 30.402463, "LON": -81.568579, "NAV_UNIT_ID": "11XK" }, "geometry": { "type": "Point", "coordinates": [ -81.568578999902002, 30.402462999581044 ] } },
{ "type": "Feature", "properties": { "OBJECTID": 27, "PORT": "Port of Long Beach", "TERMINAL": "Pier B", "OPERATED_BY": "Toyota Logistics Services, Inc.", "TERM_ADDRESS": "785 Edison Ave.", "CITY": "Long Beach", "STATE": "CA", "ZIP_CODE": "90813", "RAIL_CO": "PHL", "EQUIPMENT": "Ro/Ro", "ACCESS_RD": " ", "LAT": 33.778507, "LON": -118.219192, "NAV_UNIT_ID": "0VEQ" }, "geometry": { "type": "Point", "coordinates": [ -118.219192000608686, 33.778507000109336 ] } },
{ "type": "Feature", "properties": { "OBJECTID": 28, "PORT": "Port of Long Beach", "TERMINAL": "Pier F", "OPERATED_BY": "Crescent Terminal (SSA Marine)", "TERM_ADDRESS": "Pier F Ave.", "CITY": "Long Beach", "STATE": "CA", "ZIP_CODE": "90802", "RAIL_CO": "PHL", "EQUIPMENT": "Ro/Ro", "ACCESS_RD": " ", "LAT": 33.743948, "LON": -118.210912, "NAV_UNIT_ID": "0UZQ; 0UZR" }, "geometry": { "type": "Point", "coordinates": [ -118.210911999564587, 33.74394799978311 ] } },
{ "type": "Feature", "properties": { "OBJECTID": 29, "PORT": "Port of Los Angeles", "TERMINAL": "Pier A (Berths 195-200A)", "OPERATED_BY": "Wallenius Wilhelmsen Solutions", "TERM_ADDRESS": "500 E. Water Street", "CITY": "Wilmington", "STATE": "CA", "ZIP_CODE": "90744", "RAIL_CO": "PHL", "EQUIPMENT": "Ro/Ro", "ACCESS_RD": " ", "LAT": 33.767279, "LON": -118.259051, "NAV_UNIT_ID": "0V6N" }, "geometry": { "type": "Point", "coordinates": [ -118.259050999858331, 33.767279000011506 ] } },
{ "type": "Feature", "properties": { "OBJECTID": 30, "PORT": "Port of Miami", "TERMINAL": "Terminal", "OPERATED_BY": "Port of Miami Terminal Operating Company", "TERM_ADDRESS": "635 Australia Way", "CITY": "Miami", "STATE": "FL", "ZIP_CODE": "33132", "RAIL_CO": " ", "EQUIPMENT": "Ro/Ro", "ACCESS_RD": "Port Blvd.", "LAT": 25.769627, "LON": -80.15807, "NAV_UNIT_ID": "0Z5M; 0QCA; 0S18; 0S19; 0S1K" }, "geometry": { "type": "Point", "coordinates": [ -80.158069999356997, 25.769626999902918 ] } },
{ "type": "Feature", "properties": { "OBJECTID": 31, "PORT": "Port of Mobile", "TERMINAL": "Main Docks/General Cargo", "OPERATED_BY": "Alabama State Port Authority (ASPA)", "TERM_ADDRESS": "250 N. Water Street", "CITY": "Mobile", "STATE": "AL", "ZIP_CODE": "36602", "RAIL_CO": "BNSF, CN, CSX, KCS, NS, CGR", "EQUIPMENT": "Ro/Ro", "ACCESS_RD": "S. State Docks Road", "LAT": 30.704964, "LON": -88.043864, "NAV_UNIT_ID": "0SEA" }, "geometry": { "type": "Point", "coordinates": [ -88.043863999530799, 30.704964000721358 ] } },
{ "type": "Feature", "properties": { "OBJECTID": 32, "PORT": "Port of New Orleans", "TERMINAL": "Nashville Avenue Wharf", "OPERATED_BY": "Ports America", "TERM_ADDRESS": "1350 Port of New Orleans Place", "CITY": "New Orleans", "STATE": "LA", "ZIP_CODE": "70130", "RAIL_CO": "NOPB", "EQUIPMENT": "Ro/Ro", "ACCESS_RD": "Clarence Henry Truckway", "LAT": 29.914502, "LON": -90.120915, "NAV_UNIT_ID": "0Q20; 0S9L; 0S9K; 0S9J" }, "geometry": { "type": "Point", "coordinates": [ -90.120914999785384, 29.914502000622281 ] } },
{ "type": "Feature", "properties": { "OBJECTID": 33, "PORT": "Port of New York and New Jersey", "TERMINAL": "Port Newark", "OPERATED_BY": "Port Authority of NY & NJ", "TERM_ADDRESS": "Port Street", "CITY": "Port Newark", "STATE": "NJ", "ZIP_CODE": "07114", "RAIL_CO": "CSX, NS", "EQUIPMENT": "Ro/Ro", "ACCESS_RD": " ", "LAT": 40.697774, "LON": -74.13147, "NAV_UNIT_ID": "0YEX; 0YEY; 0YEZ; 0YKR; 0YYA; 0YYB; 0YYC; 0YEW" }, "geometry": { "type": "Point", "coordinates": [ -74.13147000038775, 40.697773999603164 ] } },
{ "type": "Feature", "properties": { "OBJECTID": 34, "PORT": "Port of New York and New Jersey", "TERMINAL": "Port Jersey", "OPERATED_BY": "Port Authority of NY & NJ", "TERM_ADDRESS": "Port Jersey Blvd.", "CITY": "Jersey City", "STATE": "NJ", "ZIP_CODE": "07305", "RAIL_CO": "CSX, NS", "EQUIPMENT": "Ro/Ro", "ACCESS_RD": " ", "LAT": 40.677057, "LON": -74.084293, "NAV_UNIT_ID": "0YFC; 108N" }, "geometry": { "type": "Point", "coordinates": [ -74.084292999643537, 40.677057000348476 ] } },
{ "type": "Feature", "properties": { "OBJECTID": 35, "PORT": "Port of Oakland", "TERMINAL": "Matson Terminal", "OPERATED_BY": "Stevedoring Services of America Terminals, Inc (SSA-Oakland)", "TERM_ADDRESS": "1579 Middle Harbor Road", "CITY": "Oakland", "STATE": "CA", "ZIP_CODE": "94607", "RAIL_CO": "BNSF, UP via OTR", "EQUIPMENT": "Ro/Ro", "ACCESS_RD": " ", "LAT": 37.797072, "LON": -122.295528, "NAV_UNIT_ID": "0VCG" }, "geometry": { "type": "Point", "coordinates": [ -122.295527999510142, 37.797071999724864 ] } },
{ "type": "Feature", "properties": { "OBJECTID": 36, "PORT": "Port of Philadelphia", "TERMINAL": "Southport Auto Terminal", "OPERATED_BY": "Glovis on behalf of PhilaPort", "TERM_ADDRESS": "3501 South Columbus Blvd.", "CITY": "Philadelphia", "STATE": "PA", "ZIP_CODE": "19134", "RAIL_CO": "CSX, NS", "EQUIPMENT": "Ro/Ro", "ACCESS_RD": "S. Delaware Ave.", "LAT": 39.89279, "LON": -75.144005, "NAV_UNIT_ID": "Inland Location (near-dock)" }, "geometry": { "type": "Point", "coordinates": [ -75.144005000294626, 39.892789999678634 ] } },
{ "type": "Feature", "properties": { "OBJECTID": 37, "PORT": "Port of Philadelphia", "TERMINAL": "Pier 98 Annex/Philadelphia Auto Processing Facility (PAPF)", "OPERATED_BY": "Glovis on behalf of PhilaPort", "TERM_ADDRESS": "4 E. Oregon Ave.", "CITY": "Philadelphia", "STATE": "PA", "ZIP_CODE": "19134", "RAIL_CO": "CSX, NS", "EQUIPMENT": "Ro/Ro", "ACCESS_RD": " ", "LAT": 39.912268, "LON": -75.140536, "NAV_UNIT_ID": "0XR9" }, "geometry": { "type": "Point", "coordinates": [ -75.140535999518121, 39.91226799952684 ] } },
{ "type": "Feature", "properties": { "OBJECTID": 38, "PORT": "Port of Philadelphia", "TERMINAL": "Parker Avenue Marine Terminal", "OPERATED_BY": "Greenwich Terminals, LLC on behalf of PhilaPort", "TERM_ADDRESS": "3301 South Columbus Blvd.", "CITY": "Philadelphia", "STATE": "PA", "ZIP_CODE": "19148", "RAIL_CO": "CSX, NS", "EQUIPMENT": "Ro/Ro", "ACCESS_RD": "S. Delaware Ave.", "LAT": 39.898882, "LON": -75.140291, "NAV_UNIT_ID": "0YCB" }, "geometry": { "type": "Point", "coordinates": [ -75.140291000194068, 39.898881999798803 ] } },
{ "type": "Feature", "properties": { "OBJECTID": 39, "PORT": "Port of Philadelphia", "TERMINAL": "Pier 122", "OPERATED_BY": "USD Group (Northeast Energy Terminal)", "TERM_ADDRESS": "3501 South Columbus Blvd.", "CITY": "Philadelphia", "STATE": "PA", "ZIP_CODE": "19134", "RAIL_CO": "CSX, NS", "EQUIPMENT": "Ro/Ro", "ACCESS_RD": "S. Delaware Ave.", "LAT": 39.896553, "LON": -75.140869, "NAV_UNIT_ID": "0YCC" }, "geometry": { "type": "Point", "coordinates": [ -75.140868999604066, 39.896552999543353 ] } },
{ "type": "Feature", "properties": { "OBJECTID": 40, "PORT": "Port of Port Arthur", "TERMINAL": "Terminal", "OPERATED_BY": "Port of Port Arthur Navigation District of Jefferson County", "TERM_ADDRESS": "100 West Lakeshore Drive", "CITY": "Port Arthur", "STATE": "TX", "ZIP_CODE": "77640", "RAIL_CO": "KCS", "EQUIPMENT": "Ro/Ro", "ACCESS_RD": " ", "LAT": 29.862698, "LON": -93.939357, "NAV_UNIT_ID": "0SQX; 0SHP" }, "geometry": { "type": "Point", "coordinates": [ -93.93935700011194, 29.862697999768308 ] } },
{ "type": "Feature", "properties": { "OBJECTID": 41, "PORT": "Port of Portland, OR", "TERMINAL": "Terminal 6", "OPERATED_BY": "Port of Portland", "TERM_ADDRESS": "7201 N. Marine Drive", "CITY": "Portland", "STATE": "OR", "ZIP_CODE": "97203", "RAIL_CO": "BNSF", "EQUIPMENT": "Ro/Ro", "ACCESS_RD": "N. Terminal Hg Road", "LAT": 45.637673, "LON": -122.754289, "NAV_UNIT_ID": "0UU5; 0UU3" }, "geometry": { "type": "Point", "coordinates": [ -122.754289000266411, 45.637672999779312 ] } },
{ "type": "Feature", "properties": { "OBJECTID": 42, "PORT": "Port of Richmond, CA", "TERMINAL": "Point Potrero Marine Terminal", "OPERATED_BY": "City of Richmond", "TERM_ADDRESS": "1301 Canal Blvd.", "CITY": "Richmond", "STATE": "CA", "ZIP_CODE": "94804", "RAIL_CO": "BNSF", "EQUIPMENT": "Ro/Ro", "ACCESS_RD": " ", "LAT": 37.909586, "LON": -122.366951, "NAV_UNIT_ID": "0VFH" }, "geometry": { "type": "Point", "coordinates": [ -122.366951000489962, 37.909586000300969 ] } },
{ "type": "Feature", "properties": { "OBJECTID": 43, "PORT": "Port of San Diego", "TERMINAL": "National City Marine Terminal", "OPERATED_BY": "Pasha Automotive Services (PAS)", "TERM_ADDRESS": "Bay Marina Drive", "CITY": "National City", "STATE": "CA", "ZIP_CODE": "91950", "RAIL_CO": "BNSF", "EQUIPMENT": "Ro/Ro", "ACCESS_RD": " ", "LAT": 32.657637, "LON": -117.117429, "NAV_UNIT_ID": "0SU5; 0STT; 0SU6" }, "geometry": { "type": "Point", "coordinates": [ -117.11742900002362, 32.657636999884865 ] } },
{ "type": "Feature", "properties": { "OBJECTID": 44, "PORT": "Port of San Diego", "TERMINAL": "Tenth Avenue Marine Terminal", "OPERATED_BY": "Port of San Diego", "TERM_ADDRESS": "1800 Crosby Road", "CITY": "San Diego", "STATE": "CA", "ZIP_CODE": "92101", "RAIL_CO": "BNSF", "EQUIPMENT": "Ro/Ro", "ACCESS_RD": " ", "LAT": 32.697282, "LON": -117.151596, "NAV_UNIT_ID": "0V92; 0V90" }, "geometry": { "type": "Point", "coordinates": [ -117.15159600054524, 32.697282000096678 ] } },
{ "type": "Feature", "properties": { "OBJECTID": 45, "PORT": "Port of San Francisco", "TERMINAL": "Pier 80", "OPERATED_BY": "Pasha Automotive Services (PAS)", "TERM_ADDRESS": "Cesar Chavez Street", "CITY": "San Francisco", "STATE": "CA", "ZIP_CODE": "94124", "RAIL_CO": "UP via SFBR", "EQUIPMENT": "Ro/Ro", "ACCESS_RD": " ", "LAT": 37.750495, "LON": -122.382237, "NAV_UNIT_ID": "0V8L" }, "geometry": { "type": "Point", "coordinates": [ -122.382237000164181, 37.750494999518139 ] } },
{ "type": "Feature", "properties": { "OBJECTID": 46, "PORT": "Port of Savannah", "TERMINAL": "Ocean Terminal", "OPERATED_BY": "Georgia Ports Authority", "TERM_ADDRESS": "55 North Lathrop Ave.", "CITY": "Savannah", "STATE": "GA", "ZIP_CODE": "31401", "RAIL_CO": "CSX, NS", "EQUIPMENT": "Ro/Ro", "ACCESS_RD": "River Street", "LAT": 32.091783, "LON": -81.108448, "NAV_UNIT_ID": "0XFT; 0XFU; 0XFV; 0YW6; 0Z4T" }, "geometry": { "type": "Point", "coordinates": [ -81.108448000065508, 32.091783000312972 ] } },
{ "type": "Feature", "properties": { "OBJECTID": 47, "PORT": "Port of Tacoma", "TERMINAL": "Blair Terminal", "OPERATED_BY": "The Northwest Seaport Alliance", "TERM_ADDRESS": "3003 Marshall Ave.", "CITY": "Tacoma", "STATE": "WA", "ZIP_CODE": "98421", "RAIL_CO": " ", "EQUIPMENT": "Ro/Ro", "ACCESS_RD": " ", "LAT": 47.25918, "LON": -122.385129, "NAV_UNIT_ID": "0UFL" }, "geometry": { "type": "Point", "coordinates": [ -122.385129000457255, 47.259179999843916 ] } },
{ "type": "Feature", "properties": { "OBJECTID": 48, "PORT": "Port of Tacoma", "TERMINAL": "East Blair One (EB1) Terminal", "OPERATED_BY": "Port of Tacoma", "TERM_ADDRESS": "2940 E. Alexander Ave.", "CITY": "Tacoma", "STATE": "WA", "ZIP_CODE": "98421", "RAIL_CO": "TMBL", "EQUIPMENT": "Ro/Ro", "ACCESS_RD": "", "LAT": 47.260118, "LON": -122.378411, "NAV_UNIT_ID": "0UFM" }, "geometry": { "type": "Point", "coordinates": [ -122.378410999910628, 47.260118000227088 ] } },
{ "type": "Feature", "properties": { "OBJECTID": 49, "PORT": "Port of Tacoma", "TERMINAL": "Terminal 7 (T7)", "OPERATED_BY": "The Northwest Seaport Alliance", "TERM_ADDRESS": "2209 E. 11th Street", "CITY": "Tacoma", "STATE": "WA", "ZIP_CODE": "98421", "RAIL_CO": "North Intermodal Yard (NIM) - BNSF, UP via TMBL", "EQUIPMENT": "Ro/Ro", "ACCESS_RD": "Sitcum Way", "LAT": 47.266915, "LON": -122.410895, "NAV_UNIT_ID": "0UGZ" }, "geometry": { "type": "Point", "coordinates": [ -122.410894999560924, 47.266915000180674 ] } },
{ "type": "Feature", "properties": { "OBJECTID": 50, "PORT": "Port of Tacoma", "TERMINAL": "Marshall Avenue Auto Facility", "OPERATED_BY": "Auto Warehousing Company", "TERM_ADDRESS": "2810-B Marshall Ave.", "CITY": "Tacoma", "STATE": "WA", "ZIP_CODE": "98421", "RAIL_CO": "BNSF, UP via TMBL", "EQUIPMENT": "Ro/Ro", "ACCESS_RD": " ", "LAT": 47.253241, "LON": -122.398259, "NAV_UNIT_ID": "Inland Location (near-dock)" }, "geometry": { "type": "Point", "coordinates": [ -122.39825899943213, 47.253241000481069 ] } },
{ "type": "Feature", "properties": { "OBJECTID": 51, "PORT": "Port of Tacoma", "TERMINAL": "TOTE Maritime Alaska Terminal", "OPERATED_BY": "TOTE Maritime", "TERM_ADDRESS": "500 E. Alexander Ave.", "CITY": "Tacoma", "STATE": "WA", "ZIP_CODE": "98421", "RAIL_CO": " ", "EQUIPMENT": "Ro/Ro", "ACCESS_RD": " ", "LAT": 47.278048, "LON": -122.408724, "NAV_UNIT_ID": "0YVY" }, "geometry": { "type": "Point", "coordinates": [ -122.408724000589615, 47.278048000086329 ] } },
{ "type": "Feature", "properties": { "OBJECTID": 52, "PORT": "Port of Vancouver, WA", "TERMINAL": "Terminal 4", "OPERATED_BY": "Port of Vancouver", "TERM_ADDRESS": "3103 N.W. Lower River Road", "CITY": "Vancouver", "STATE": "WA", "ZIP_CODE": "98660", "RAIL_CO": "BNSF", "EQUIPMENT": "Ro/Ro", "ACCESS_RD": "W. 26th Ave.", "LAT": 45.637531, "LON": -122.703418, "NAV_UNIT_ID": "0ZBD" }, "geometry": { "type": "Point", "coordinates": [ -122.703418000411446, 45.637531000254981 ] } },
{ "type": "Feature", "properties": { "OBJECTID": 53, "PORT": "Port of Virginia", "TERMINAL": "Newport News Marine Terminal (NNMT)", "OPERATED_BY": "Virginia Port Authority", "TERM_ADDRESS": "25th Street and Warwick Blvd.", "CITY": "Newport News", "STATE": "VA", "ZIP_CODE": "23607", "RAIL_CO": "CSX", "EQUIPMENT": "Ro/Ro", "ACCESS_RD": " ", "LAT": 36.978723, "LON": -76.425063, "NAV_UNIT_ID": "0S28" }, "geometry": { "type": "Point", "coordinates": [ -76.425062999965377, 36.978722999605452 ] } },
{ "type": "Feature", "properties": { "OBJECTID": 54, "PORT": "Port of Wilmington, DE", "TERMINAL": "Marine Terminal", "OPERATED_BY": "GT USA Wilmington, LLC", "TERM_ADDRESS": "1 Hausel Road", "CITY": "Wilmington", "STATE": "DE", "ZIP_CODE": "19801", "RAIL_CO": "NS", "EQUIPMENT": "Ro/Ro", "ACCESS_RD": "Old Ferry Road", "LAT": 39.715903, "LON": -75.530849, "NAV_UNIT_ID": "0RQ0; 0RQA" }, "geometry": { "type": "Point", "coordinates": [ -75.530849000326668, 39.715903000208954 ] } },
{ "type": "Feature", "properties": { "OBJECTID": 55, "PORT": "Port of Wilmington, NC", "TERMINAL": "General Cargo Terminal (North Gate)", "OPERATED_BY": "North Carolina State Ports Authority", "TERM_ADDRESS": "1870 Burnett Blvd.", "CITY": "Wilmington", "STATE": "NC", "ZIP_CODE": "28401", "RAIL_CO": "CSX via WTRY", "EQUIPMENT": "Ro/Ro", "ACCESS_RD": "Myers Street", "LAT": 34.208149, "LON": -77.949758, "NAV_UNIT_ID": "0S7L; 0S81" }, "geometry": { "type": "Point", "coordinates": [ -77.949757999830197, 34.208149000050369 ] } },
{ "type": "Feature", "properties": { "OBJECTID": 56, "PORT": "Port of Mobile", "TERMINAL": "AutoMobile Ro/Ro International Terminal", "OPERATED_BY": "AutoMobile International Terminal", "TERM_ADDRESS": "1925 Alabama State Docks Boulevard", "CITY": "Mobile", "STATE": "AL", "ZIP_CODE": "36602", "RAIL_CO": "AGR via BNSF, CN, CSX, KCS, NS", "EQUIPMENT": "Ro/Ro", "ACCESS_RD": null, "LAT": 30.722221, "LON": -88.04699, "NAV_UNIT_ID": "0SEA" }, "geometry": { "type": "Point", "coordinates": [ -88.046990000175626, 30.722221000204534 ] } },
{ "type": "Feature", "properties": { "OBJECTID": 57, "PORT": "Port of Morehead City (NC)", "TERMINAL": "General Cargo Terminal", "OPERATED_BY": "North Carolina State Ports Authority", "TERM_ADDRESS": "113 Arendell Street", "CITY": "Morehead City", "STATE": "NC", "ZIP_CODE": "28557", "RAIL_CO": "NS via CLNA", "EQUIPMENT": "Ro/Ro", "ACCESS_RD": null, "LAT": 34.720258, "LON": -76.702583, "NAV_UNIT_ID": "0S54" }, "geometry": { "type": "Point", "coordinates": [ -76.702583000100603, 34.720257999893462 ] } },
{ "type": "Feature", "properties": { "OBJECTID": 58, "PORT": "Port of Virginia", "TERMINAL": "Portsmouth Marine Terminal (PMT)", "OPERATED_BY": "Virginia Port Authority", "TERM_ADDRESS": "Intersection of Cleveland Street and Lee Avenue", "CITY": "Portsmouth", "STATE": "VA", "ZIP_CODE": "23707", "RAIL_CO": "CSX, NS via NPBL", "EQUIPMENT": "Ro/Ro", "ACCESS_RD": "Hill Rd.", "LAT": 36.854061, "LON": -76.329789, "NAV_UNIT_ID": "0X4W; 0X4V" }, "geometry": { "type": "Point", "coordinates": [ -76.329788999658518, 36.854061000452688 ] } },
{ "type": "Feature", "properties": { "OBJECTID": 59, "PORT": "Port of Virginia", "TERMINAL": "Richmond Marine Terminal (RMT)", "OPERATED_BY": "Virginia Port Authority", "TERM_ADDRESS": "5000 Deepwater Terminal Road", "CITY": "Richmond", "STATE": "VA", "ZIP_CODE": "23234", "RAIL_CO": "CSX, NS", "EQUIPMENT": "Ro/Ro", "ACCESS_RD": null, "LAT": 37.459837, "LON": -77.423559, "NAV_UNIT_ID": "0S7J; 0Q40" }, "geometry": { "type": "Point", "coordinates": [ -77.423559000152949, 37.459837000627097 ] } },
{ "type": "Feature", "properties": { "OBJECTID": 60, "PORT": "Port of Providence", "TERMINAL": "ProvPort Terminal", "OPERATED_BY": "Waterson Terminal Services, LLC (WTS)", "TERM_ADDRESS": "35 Terminal Road", "CITY": "Providence", "STATE": "RI", "ZIP_CODE": "02905", "RAIL_CO": "PW", "EQUIPMENT": "Ro/Ro", "ACCESS_RD": null, "LAT": 41.795693, "LON": -71.387947, "NAV_UNIT_ID": "0XLD" }, "geometry": { "type": "Point", "coordinates": [ -71.387946999845468, 41.795693000400021 ] } },
{ "type": "Feature", "properties": { "OBJECTID": 61, "PORT": "Port of New York and New Jersey", "TERMINAL": "GCT New York, NY - ExpressRail (Staten Island)", "OPERATED_BY": "Global Container Terminals Inc.", "TERM_ADDRESS": "300 Western Avenue", "CITY": "Staten Island", "STATE": "NY", "ZIP_CODE": "10303", "RAIL_CO": "CSX, NS", "EQUIPMENT": "Ro/Ro", "ACCESS_RD": null, "LAT": 40.637148, "LON": -74.186455, "NAV_UNIT_ID": "0YD4" }, "geometry": { "type": "Point", "coordinates": [ -74.18645500037637, 40.637147999917644 ] } },
{ "type": "Feature", "properties": { "OBJECTID": 62, "PORT": "Camden Gloucester", "TERMINAL": "Salem Marine Terminal (SMT)", "OPERATED_BY": "South Jersey Port Corporation (SJPC)", "TERM_ADDRESS": "Salem, New Jersey at Exit 1 of the New Jersey Turnpike", "CITY": "Salam", "STATE": "NJ", "ZIP_CODE": "08079", "RAIL_CO": "CSX, NS", "EQUIPMENT": "Ro/Ro", "ACCESS_RD": "Tilbury Road", "LAT": 39.57213, "LON": -75.485041, "NAV_UNIT_ID": "0YRQ" }, "geometry": { "type": "Point", "coordinates": [ -75.4850409997361, 39.572129999763675 ] } },
{ "type": "Feature", "properties": { "OBJECTID": 63, "PORT": "Port of Grays Harbor", "TERMINAL": "Terminal 4 / Omni-Terminal", "OPERATED_BY": "Port of Grays Harbor Commission", "TERM_ADDRESS": "111 S Wooding Street", "CITY": "Aberdeen", "STATE": "WA", "ZIP_CODE": "98520", "RAIL_CO": "BNSF, UP via PSAP", "EQUIPMENT": "Ro/Ro", "ACCESS_RD": "E Terminal Way", "LAT": 46.962325, "LON": -123.837809, "NAV_UNIT_ID": "0YZ4" }, "geometry": { "type": "Point", "coordinates": [ -123.837808999688548, 46.962325000079893 ] } },
{ "type": "Feature", "properties": { "OBJECTID": 64, "PORT": "Port Tampa Bay", "TERMINAL": "Hooker's Point Berths 201-203", "OPERATED_BY": "Tampa Port Authority", "TERM_ADDRESS": "2999 Guy N Verger Boulevard", "CITY": "Tampa", "STATE": "FL", "ZIP_CODE": "33605", "RAIL_CO": "CSX", "EQUIPMENT": "Ro/Ro", "ACCESS_RD": null, "LAT": 27.929955, "LON": -82.436158, "NAV_UNIT_ID": "0ZRM; 0ZRL" }, "geometry": { "type": "Point", "coordinates": [ -82.436157999875618, 27.92995500041938 ] } },
{ "type": "Feature", "properties": { "OBJECTID": 65, "PORT": "Port of Houston", "TERMINAL": "Turning Basin Terminal", "OPERATED_BY": "Port of Houston Authority", "TERM_ADDRESS": "300 East Loop North", "CITY": "Houston", "STATE": "TX", "ZIP_CODE": "77029", "RAIL_CO": "BNSF, KCS, UP via PTRA", "EQUIPMENT": "Ro/Ro", "ACCESS_RD": null, "LAT": 29.738372, "LON": -95.269198, "NAV_UNIT_ID": "0Z18; 0YQL; 0VRZ; 0VUS; 0VS0; 0VUT; 0YXU" }, "geometry": { "type": "Point", "coordinates": [ -95.269197999608721, 29.738372000056877 ] } },
{ "type": "Feature", "properties": { "OBJECTID": 66, "PORT": "Port of Houston", "TERMINAL": "Bayport Auto Terminal", "OPERATED_BY": "Port of Houston Authority", "TERM_ADDRESS": "12621 Port Road", "CITY": "Pasadena", "STATE": "TX", "ZIP_CODE": "77586", "RAIL_CO": "UP", "EQUIPMENT": "Ro/Ro", "ACCESS_RD": null, "LAT": 29.601013, "LON": -94.999168, "NAV_UNIT_ID": "108W; 108X" }, "geometry": { "type": "Point", "coordinates": [ -94.999168000497221, 29.601012999895094 ] } },
{ "type": "Feature", "properties": { "OBJECTID": 67, "PORT": "Port of Houston", "TERMINAL": "Barbours Cut", "OPERATED_BY": "Port of Houston Authority", "TERM_ADDRESS": "1515 E. Barbours Cut Boulevard", "CITY": " La Porte", "STATE": "TX", "ZIP_CODE": "77571", "RAIL_CO": "BNSF, UP via PTRA", "EQUIPMENT": "Ro/Ro", "ACCESS_RD": null, "LAT": 29.67558, "LON": -95.004574, "NAV_UNIT_ID": "0SX5; 0SKN" }, "geometry": { "type": "Point", "coordinates": [ -95.004573999893296, 29.675579999680306 ] } },
{ "type": "Feature", "properties": { "OBJECTID": 68, "PORT": "Port of Gulfport", "TERMINAL": "Deep Water Port (West Pier Terminal)", "OPERATED_BY": "Mississippi State Port Authority (MSPA)", "TERM_ADDRESS": "1000 30th Avenue South Extension", "CITY": "Gulfport", "STATE": "MS", "ZIP_CODE": "39501", "RAIL_CO": "KCS", "EQUIPMENT": "Ro/Ro", "ACCESS_RD": null, "LAT": 30.359782, "LON": -89.096581, "NAV_UNIT_ID": "0SC7; 0PUS; 0SD8; 0SBQ; 0NQD" }, "geometry": { "type": "Point", "coordinates": [ -89.096580999625829, 30.359782000370839 ] } },
{ "type": "Feature", "properties": { "OBJECTID": 69, "PORT": "Port of Palm Beach", "TERMINAL": "Palm Beach Terminal", "OPERATED_BY": "Port of Palm Beach District Commission", "TERM_ADDRESS": "1 E. 11th Street", "CITY": "Riviera Beach", "STATE": "FL", "ZIP_CODE": "33404", "RAIL_CO": "CSX, NS via FEC", "EQUIPMENT": "Ro/Ro", "ACCESS_RD": "MLK Jr Blvd", "LAT": 26.769241, "LON": -80.05916, "NAV_UNIT_ID": "0YYG; 0YXA; 0XP8; 0YW7; 0YZ5; 0YZ6" }, "geometry": { "type": "Point", "coordinates": [ -80.059159999665681, 26.769241000263289 ] } },
{ "type": "Feature", "properties": { "OBJECTID": 70, "PORT": "Port of Oakland", "TERMINAL": "Charles P. Howard Terminal", "OPERATED_BY": "Port of Oakland Commission", "TERM_ADDRESS": "1 Market Street", "CITY": "Oakland", "STATE": "CA", "ZIP_CODE": "94607", "RAIL_CO": "BNSF, UP via OTR", "EQUIPMENT": "Ro/Ro", "ACCESS_RD": null, "LAT": 37.797859, "LON": -122.284749, "NAV_UNIT_ID": "0YBM" }, "geometry": { "type": "Point", "coordinates": [ -122.284749000329967, 37.797859000443886 ] } },
{ "type": "Feature", "properties": { "OBJECTID": 71, "PORT": "Port of Hawaii", "TERMINAL": "Kahului Harbor (Pier 1)", "OPERATED_BY": "Matson; Pasha ", "TERM_ADDRESS": "103 Ala Luina Street", "CITY": "Kahului", "STATE": "HI", "ZIP_CODE": "96732", "RAIL_CO": null, "EQUIPMENT": "Ro/Ro", "ACCESS_RD": "Hobron Ave.; Perimeter Rd.", "LAT": 20.897863, "LON": -156.46634, "NAV_UNIT_ID": "0U60" }, "geometry": { "type": "Point", "coordinates": [ -156.466340000114883, 20.897862999729828 ] } },
{ "type": "Feature", "properties": { "OBJECTID": 72, "PORT": "Port of Hawaii", "TERMINAL": "Honolulu Harbour Piers 1-2 (Fort Armstrong)", "OPERATED_BY": "Pasha", "TERM_ADDRESS": "Forrest Avenue", "CITY": "Honolulu", "STATE": "HI", "ZIP_CODE": "96814", "RAIL_CO": null, "EQUIPMENT": "Ro/Ro", "ACCESS_RD": "Pier 1", "LAT": 21.297219, "LON": -157.86621, "NAV_UNIT_ID": "0UDD" }, "geometry": { "type": "Point", "coordinates": [ -157.866210000323463, 21.297219000546491 ] } },
{ "type": "Feature", "properties": { "OBJECTID": 73, "PORT": "Port of Hawaii", "TERMINAL": "Honolulu Harbour Piers 39-40 (Interisland Terminal)", "OPERATED_BY": "Young Brothers", "TERM_ADDRESS": "1331 North Nimitz Highway", "CITY": "Honolulu", "STATE": "HI", "ZIP_CODE": "96817", "RAIL_CO": null, "EQUIPMENT": "Ro/Ro", "ACCESS_RD": "Waiakamilo Rd", "LAT": 21.320824, "LON": -157.880289, "NAV_UNIT_ID": "0UC9; 0ZL6" }, "geometry": { "type": "Point", "coordinates": [ -157.88028900022573, 21.32082399948537 ] } },
{ "type": "Feature", "properties": { "OBJECTID": 74, "PORT": "Port of Hawaii", "TERMINAL": "Honolulu Harbour Pier 29", "OPERATED_BY": "Hawaii Department of Transportation, Harbors Division (DOT-H)", "TERM_ADDRESS": "N Nimitz Highway", "CITY": "Honolulu", "STATE": "HI", "ZIP_CODE": "96817", "RAIL_CO": null, "EQUIPMENT": "Ro/Ro", "ACCESS_RD": null, "LAT": 21.312518, "LON": -157.87095, "NAV_UNIT_ID": "0U8N" }, "geometry": { "type": "Point", "coordinates": [ -157.870950000445987, 21.312517999788867 ] } },
{ "type": "Feature", "properties": { "OBJECTID": 75, "PORT": "Port of Tacoma", "TERMINAL": "West Sitcum Terminal", "OPERATED_BY": "SSA Marine", "TERM_ADDRESS": "1675 Lincoln Avenue", "CITY": "Tacoma", "STATE": "WA", "ZIP_CODE": "98421", "RAIL_CO": "SIM", "EQUIPMENT": "Ro/Ro", "ACCESS_RD": "Lincoln Ave. Loop; Milwaukee Way", "LAT": 47.258294, "LON": -122.411932, "NAV_UNIT_ID": "0YZL" }, "geometry": { "type": "Point", "coordinates": [ -122.411931999453529, 47.258294000291897 ] } },
{ "type": "Feature", "properties": { "OBJECTID": 76, "PORT": "Port of Seattle", "TERMINAL": "Terminal 115 (T-115)", "OPERATED_BY": "Alaska Marine Lines", "TERM_ADDRESS": "6700 W Marginal Way SW", "CITY": "Seattle", "STATE": "WA", "ZIP_CODE": "98106", "RAIL_CO": "BNSF via TMBL", "EQUIPMENT": "Ro/Ro", "ACCESS_RD": "SW Front St", "LAT": 47.542192, "LON": -122.341085, "NAV_UNIT_ID": "0ZPU" }, "geometry": { "type": "Point", "coordinates": [ -122.341085000030546, 47.542192000290854 ] } },
{ "type": "Feature", "properties": { "OBJECTID": 77, "PORT": "Port of Alaska in Anchorage", "TERMINAL": "General Cargo Terminal", "OPERATED_BY": "Port of Alaska in Anchorage", "TERM_ADDRESS": "2000 Anchorage Port Road", "CITY": "Anchorage", "STATE": "AK", "ZIP_CODE": "99501", "RAIL_CO": "ARR", "EQUIPMENT": "Ro/Ro", "ACCESS_RD": "Ocean Dock Rd", "LAT": 61.229168, "LON": -149.890783, "NAV_UNIT_ID": "0TQV" }, "geometry": { "type": "Point", "coordinates": [ -149.890783000313803, 61.229167999630391 ] } },
{ "type": "Feature", "properties": { "OBJECTID": 78, "PORT": "Port of Long Beach", "TERMINAL": "SSA Terminals (Pier C)", "OPERATED_BY": "SSA Marine", "TERM_ADDRESS": "1521 Pier C Street", "CITY": "Long Beach", "STATE": "CA", "ZIP_CODE": "90813", "RAIL_CO": null, "EQUIPMENT": "Ro/Ro", "ACCESS_RD": null, "LAT": 33.773289, "LON": -118.213546, "NAV_UNIT_ID": "0V14" }, "geometry": { "type": "Point", "coordinates": [ -118.213546000114775, 33.773289000456501 ] } },
{ "type": "Feature", "properties": { "OBJECTID": 79, "PORT": "Port of Long Beach", "TERMINAL": "Matson Auto Yard", "OPERATED_BY": "Matson", "TERM_ADDRESS": "1320 Pier C Street", "CITY": "Long Beach", "STATE": "CA", "ZIP_CODE": "90813", "RAIL_CO": null, "EQUIPMENT": "Ro/Ro", "ACCESS_RD": null, "LAT": 33.77475, "LON": -118.20969, "NAV_UNIT_ID": "0V14" }, "geometry": { "type": "Point", "coordinates": [ -118.20968999972402, 33.774750000354757 ] } },
{ "type": "Feature", "properties": { "OBJECTID": 80, "PORT": "Port Itawamba", "TERMINAL": "Terminal", "OPERATED_BY": "Itawamba County Port Authority", "TERM_ADDRESS": "104 Port Road", "CITY": "Fulton", "STATE": "MS", "ZIP_CODE": "38843", "RAIL_CO": "MSRW", "EQUIPMENT": "Ro/Ro", "ACCESS_RD": "S Access Road", "LAT": 34.244096, "LON": -88.414108, "NAV_UNIT_ID": "11Y2" }, "geometry": { "type": "Point", "coordinates": [ -88.41410799998657, 34.244095999979919 ] } },
{ "type": "Feature", "properties": { "OBJECTID": 81, "PORT": "Natchez - Adams County Port", "TERMINAL": "Terminal", "OPERATED_BY": "Natchez Port Authority", "TERM_ADDRESS": "2 River Terminal Road", "CITY": "Natchez", "STATE": "MS", "ZIP_CODE": "39120", "RAIL_CO": "NTZR", "EQUIPMENT": "Ro/Ro", "ACCESS_RD": null, "LAT": 31.538636, "LON": -91.439031, "NAV_UNIT_ID": "0U2B" }, "geometry": { "type": "Point", "coordinates": [ -91.439031000445951, 31.5386360000502 ] } },
{ "type": "Feature", "properties": { "OBJECTID": 82, "PORT": "Port Lavaca-Port Comfort", "TERMINAL": "Multi-Purpose Dock", "OPERATED_BY": "Calhoun Port Authority", "TERM_ADDRESS": "2313 FM1593", "CITY": "Point Comfort", "STATE": "TX", "ZIP_CODE": "77978", "RAIL_CO": "UP via PCN", "EQUIPMENT": "Ro/Ro", "ACCESS_RD": "Diebel Ln", "LAT": 28.646287, "LON": -96.548462, "NAV_UNIT_ID": "0YJL; 0VH9" }, "geometry": { "type": "Point", "coordinates": [ -96.548462000775046, 28.646286999936642 ] } },
{ "type": "Feature", "properties": { "OBJECTID": 83, "PORT": "Port of Duluth-Superior", "TERMINAL": "Clure Public Marine Terminal", "OPERATED_BY": "Lake Superior Warehousing", "TERM_ADDRESS": "1210 Port Terminal Road", "CITY": "Duluth", "STATE": "MN", "ZIP_CODE": "55802", "RAIL_CO": "BNSF, CN, CP, UP", "EQUIPMENT": "Ro/Ro", "ACCESS_RD": null, "LAT": 46.758181, "LON": -92.098748, "NAV_UNIT_ID": "0TRM; 0TRN; 0T8V; 0Q0N" }, "geometry": { "type": "Point", "coordinates": [ -92.098748000377086, 46.758180999862631 ] } },
{ "type": "Feature", "properties": { "OBJECTID": 84, "PORT": "General Cargo Dock", "TERMINAL": "Port of Caddo-Bossier", "OPERATED_BY": "Port of Caddo-Bossier Commission", "TERM_ADDRESS": "10905 Doug Attaway Boulevard", "CITY": "Shreveport", "STATE": "LA", "ZIP_CODE": "71115", "RAIL_CO": "KCS, UP", "EQUIPMENT": "Ro/Ro", "ACCESS_RD": null, "LAT": 32.362739, "LON": -93.629967, "NAV_UNIT_ID": "0TE3" }, "geometry": { "type": "Point", "coordinates": [ -93.629966999721447, 32.362739000276058 ] } }
]
}
